[
  {
    "id": "fr-angers",
    "name": "Stade Raymond Kopa",
    "team": "Angers",
    "league": "Ligue 1",
    "city": "Angers",
    "lat": 47.4605516,
    "lon": -0.5306948,
    "countryCode": "fr",
    "leagueCode": "fr-ligue-1",
    "leaguePack": "france_top_3",
    "shortCode": "ANG"
  },
  {
    "id": "fr-auxerre",
    "name": "Stade Abbé Deschamps",
    "team": "Auxerre",
    "league": "Ligue 1",
    "city": "Auxerre",
    "lat": 47.7867848,
    "lon": 3.5886237,
    "countryCode": "fr",
    "leagueCode": "fr-ligue-1",
    "leaguePack": "france_top_3",
    "shortCode": "AUX"
  },
  {
    "id": "fr-brest",
    "name": "Stade Francis-Le Blé",
    "team": "Brest",
    "league": "Ligue 1",
    "city": "Brest",
    "lat": 48.4030423,
    "lon": -4.4613605,
    "countryCode": "fr",
    "leagueCode": "fr-ligue-1",
    "leaguePack": "france_top_3",
    "shortCode": "BRE"
  },
  {
    "id": "fr-le-havre",
    "name": "Stade Océane",
    "team": "Le Havre",
    "league": "Ligue 1",
    "city": "Le Havre",
    "lat": 49.4987513,
    "lon": 0.1694637,
    "countryCode": "fr",
    "leagueCode": "fr-ligue-1",
    "leaguePack": "france_top_3",
    "shortCode": "LHE"
  },
  {
    "id": "fr-lens",
    "name": "Stade Bollaert-Delelis",
    "team": "Lens",
    "league": "Ligue 1",
    "city": "Lens",
    "lat": 50.43281,
    "lon": 2.8149878,
    "countryCode": "fr",
    "leagueCode": "fr-ligue-1",
    "leaguePack": "france_top_3",
    "shortCode": "LEN"
  },
  {
    "id": "fr-lille",
    "name": "Stade Pierre-Mauroy",
    "team": "Lille",
    "league": "Ligue 1",
    "city": "Villeneuve-d'Ascq",
    "lat": 50.6119044,
    "lon": 3.130508,
    "countryCode": "fr",
    "leagueCode": "fr-ligue-1",
    "leaguePack": "france_top_3",
    "shortCode": "LIL"
  },
  {
    "id": "fr-lorient",
    "name": "Stade du Moustoir",
    "team": "Lorient",
    "league": "Ligue 1",
    "city": "Lorient",
    "lat": 47.7488021,
    "lon": -3.3695412,
    "countryCode": "fr",
    "leagueCode": "fr-ligue-1",
    "leaguePack": "france_top_3",
    "shortCode": "LOR"
  },
  {
    "id": "fr-lyon",
    "name": "Groupama Stadium",
    "team": "Lyon",
    "league": "Ligue 1",
    "city": "Décines-Charpieu",
    "lat": 45.7653624,
    "lon": 4.9820543,
    "countryCode": "fr",
    "leagueCode": "fr-ligue-1",
    "leaguePack": "france_top_3",
    "shortCode": "LYO"
  },
  {
    "id": "fr-marseille",
    "name": "Stade Vélodrome",
    "team": "Marseille",
    "league": "Ligue 1",
    "city": "Marseille",
    "lat": 43.2698363,
    "lon": 5.3959117,
    "countryCode": "fr",
    "leagueCode": "fr-ligue-1",
    "leaguePack": "france_top_3",
    "shortCode": "MAR"
  },
  {
    "id": "fr-metz",
    "name": "Stade Saint-Symphorien",
    "team": "Metz",
    "league": "Ligue 1",
    "city": "Longeville-lès-Metz",
    "lat": 49.109636,
    "lon": 6.1596049,
    "countryCode": "fr",
    "leagueCode": "fr-ligue-1",
    "leaguePack": "france_top_3",
    "shortCode": "MET"
  },
  {
    "id": "fr-monaco",
    "name": "Stade Louis II",
    "team": "Monaco",
    "league": "Ligue 1",
    "city": "Monaco",
    "lat": 43.7275713,
    "lon": 7.4154577,
    "countryCode": "fr",
    "leagueCode": "fr-ligue-1",
    "leaguePack": "france_top_3",
    "shortCode": "MON"
  },
  {
    "id": "fr-nantes",
    "name": "Stade de la Beaujoire",
    "team": "Nantes",
    "league": "Ligue 1",
    "city": "Nantes",
    "lat": 47.256005,
    "lon": -1.5247552,
    "countryCode": "fr",
    "leagueCode": "fr-ligue-1",
    "leaguePack": "france_top_3",
    "shortCode": "NAN"
  },
  {
    "id": "fr-nice",
    "name": "Allianz Riviera",
    "team": "Nice",
    "league": "Ligue 1",
    "city": "Nice",
    "lat": 43.7051477,
    "lon": 7.1926033,
    "countryCode": "fr",
    "leagueCode": "fr-ligue-1",
    "leaguePack": "france_top_3",
    "shortCode": "NIC"
  },
  {
    "id": "fr-psg",
    "name": "Parc des Princes",
    "team": "PSG",
    "league": "Ligue 1",
    "city": "Paris",
    "lat": 48.8413634,
    "lon": 2.2530693,
    "countryCode": "fr",
    "leagueCode": "fr-ligue-1",
    "leaguePack": "france_top_3",
    "shortCode": "PSG"
  },
  {
    "id": "fr-paris-fc",
    "name": "Stade Jean-Bouin",
    "team": "Paris FC",
    "league": "Ligue 1",
    "city": "Paris (Paris 16)",
    "lat": 48.8433187,
    "lon": 2.2529615,
    "countryCode": "fr",
    "leagueCode": "fr-ligue-1",
    "leaguePack": "france_top_3",
    "shortCode": "PFA"
  },
  {
    "id": "fr-rennes",
    "name": "Roazhon Park",
    "team": "Rennes",
    "league": "Ligue 1",
    "city": "Rennes",
    "lat": 48.1075655,
    "lon": -1.7126543,
    "countryCode": "fr",
    "leagueCode": "fr-ligue-1",
    "leaguePack": "france_top_3",
    "shortCode": "REN"
  },
  {
    "id": "fr-strasbourg",
    "name": "Stade de la Meinau",
    "team": "Strasbourg",
    "league": "Ligue 1",
    "city": "Strasbourg",
    "lat": 48.5599481,
    "lon": 7.7551221,
    "countryCode": "fr",
    "leagueCode": "fr-ligue-1",
    "leaguePack": "france_top_3",
    "shortCode": "STR"
  },
  {
    "id": "fr-toulouse",
    "name": "Stadium de Toulouse",
    "team": "Toulouse",
    "league": "Ligue 1",
    "city": "Toulouse",
    "lat": 43.5832262,
    "lon": 1.4340638,
    "countryCode": "fr",
    "leagueCode": "fr-ligue-1",
    "leaguePack": "france_top_3",
    "shortCode": "TOU"
  },
  {
    "id": "fr-amiens",
    "name": "Stade de la Licorne",
    "team": "Amiens",
    "league": "Ligue 2",
    "city": "Amiens",
    "lat": 49.8939922,
    "lon": 2.2634742,
    "countryCode": "fr",
    "leagueCode": "fr-ligue-2",
    "leaguePack": "france_top_3",
    "shortCode": "AMI"
  },
  {
    "id": "fr-annecy-fc",
    "name": "Parc des Sports",
    "team": "Annecy FC",
    "league": "Ligue 2",
    "city": "Annecy",
    "lat": 45.916893,
    "lon": 6.119222,
    "countryCode": "fr",
    "leagueCode": "fr-ligue-2",
    "leaguePack": "france_top_3",
    "shortCode": "AFN"
  },
  {
    "id": "fr-bastia",
    "name": "Stade Armand Cesari",
    "team": "Bastia",
    "league": "Ligue 2",
    "city": "Bastia",
    "lat": 42.6514849,
    "lon": 9.4427194,
    "countryCode": "fr",
    "leagueCode": "fr-ligue-2",
    "leaguePack": "france_top_3",
    "shortCode": "BAS"
  },
  {
    "id": "fr-boulogne",
    "name": "Stade de la Libération",
    "team": "Boulogne",
    "league": "Ligue 2",
    "city": "Boulogne-sur-Mer",
    "lat": 50.7236295,
    "lon": 1.6194832,
    "countryCode": "fr",
    "leagueCode": "fr-ligue-2",
    "leaguePack": "france_top_3",
    "shortCode": "BOU"
  },
  {
    "id": "fr-clermont",
    "name": "Stade Gabriel Montpied",
    "team": "Clermont",
    "league": "Ligue 2",
    "city": "Clermont-Ferrand",
    "lat": 45.8158775,
    "lon": 3.1215004,
    "countryCode": "fr",
    "leagueCode": "fr-ligue-2",
    "leaguePack": "france_top_3",
    "shortCode": "CLE"
  },
  {
    "id": "fr-grenoble",
    "name": "Stade des Alpes",
    "team": "Grenoble",
    "league": "Ligue 2",
    "city": "Grenoble",
    "lat": 45.1873945,
    "lon": 5.7402434,
    "countryCode": "fr",
    "leagueCode": "fr-ligue-2",
    "leaguePack": "france_top_3",
    "shortCode": "GRE"
  },
  {
    "id": "fr-guingamp",
    "name": "Stade de Roudourou",
    "team": "Guingamp",
    "league": "Ligue 2",
    "city": "Guingamp",
    "lat": 48.5660192,
    "lon": -3.1644544,
    "countryCode": "fr",
    "leagueCode": "fr-ligue-2",
    "leaguePack": "france_top_3",
    "shortCode": "GUI"
  },
  {
    "id": "fr-laval",
    "name": "Stade Francis Le Basser",
    "team": "Laval",
    "league": "Ligue 2",
    "city": "Laval",
    "lat": 48.0822273,
    "lon": -0.7547609,
    "countryCode": "fr",
    "leagueCode": "fr-ligue-2",
    "leaguePack": "france_top_3",
    "shortCode": "LAV"
  },
  {
    "id": "fr-le-mans",
    "name": "Stade Marie-Marvingt",
    "team": "Le Mans",
    "league": "Ligue 2",
    "city": "Le Mans",
    "lat": 47.9591652,
    "lon": 0.2231087,
    "countryCode": "fr",
    "leagueCode": "fr-ligue-2",
    "leaguePack": "france_top_3",
    "shortCode": "LME"
  },
  {
    "id": "fr-montpellier",
    "name": "Stade de la Mosson",
    "team": "Montpellier",
    "league": "Ligue 2",
    "city": "Montpellier",
    "lat": 43.622022,
    "lon": 3.8120898,
    "countryCode": "fr",
    "leagueCode": "fr-ligue-2",
    "leaguePack": "france_top_3",
    "shortCode": "MO2"
  },
  {
    "id": "fr-nancy",
    "name": "Stade Marcel Picot",
    "team": "Nancy",
    "league": "Ligue 2",
    "city": "Nancy",
    "lat": 48.6958314,
    "lon": 6.2104164,
    "countryCode": "fr",
    "leagueCode": "fr-ligue-2",
    "leaguePack": "france_top_3",
    "shortCode": "NA2"
  },
  {
    "id": "fr-pau-fc",
    "name": "Nouste Camp",
    "team": "Pau FC",
    "league": "Ligue 2",
    "city": "Pau",
    "lat": 43.3076459,
    "lon": -0.3251797,
    "countryCode": "fr",
    "leagueCode": "fr-ligue-2",
    "leaguePack": "france_top_3",
    "shortCode": "PF2"
  },
  {
    "id": "fr-red-star",
    "name": "Stade Bauer",
    "team": "Red Star",
    "league": "Ligue 2",
    "city": "Paris (Saint-Ouen)",
    "lat": 48.9011756,
    "lon": 2.3299941,
    "countryCode": "fr",
    "leagueCode": "fr-ligue-2",
    "leaguePack": "france_top_3",
    "shortCode": "RSE"
  },
  {
    "id": "fr-reims",
    "name": "Stade Auguste-Delaune",
    "team": "Reims",
    "league": "Ligue 2",
    "city": "Reims",
    "lat": 49.2470758,
    "lon": 4.0247869,
    "countryCode": "fr",
    "leagueCode": "fr-ligue-2",
    "leaguePack": "france_top_3",
    "shortCode": "REI"
  },
  {
    "id": "fr-rodez",
    "name": "Stade Paul Lignon",
    "team": "Rodez",
    "league": "Ligue 2",
    "city": "Rodez",
    "lat": 44.3516258,
    "lon": 2.5637614,
    "countryCode": "fr",
    "leagueCode": "fr-ligue-2",
    "leaguePack": "france_top_3",
    "shortCode": "ROD"
  },
  {
    "id": "fr-st-etienne",
    "name": "Stade Geoffroy Guichard",
    "team": "St. Etienne",
    "league": "Ligue 2",
    "city": "Saint-Étienne",
    "lat": 45.4607567,
    "lon": 4.3900932,
    "countryCode": "fr",
    "leagueCode": "fr-ligue-2",
    "leaguePack": "france_top_3",
    "shortCode": "SET"
  },
  {
    "id": "fr-troyes",
    "name": "Stade de l'Aube",
    "team": "Troyes",
    "league": "Ligue 2",
    "city": "Troyes",
    "lat": 48.3075171,
    "lon": 4.0985168,
    "countryCode": "fr",
    "leagueCode": "fr-ligue-2",
    "leaguePack": "france_top_3",
    "shortCode": "TRO"
  },
  {
    "id": "fr-usl-dunkerque",
    "name": "Stade Marcel Tribut",
    "team": "USL Dunkerque",
    "league": "Ligue 2",
    "city": "Dunkirk",
    "lat": 51.0352648,
    "lon": 2.3898456,
    "countryCode": "fr",
    "leagueCode": "fr-ligue-2",
    "leaguePack": "france_top_3",
    "shortCode": "UDS"
  },
  {
    "id": "fr-ajaccio",
    "name": "Stade Michel Moretti",
    "team": "Ajaccio",
    "league": "National",
    "city": "Ajaccio",
    "lat": 41.9308308,
    "lon": 8.776793,
    "countryCode": "fr",
    "leagueCode": "fr-national",
    "leaguePack": "france_top_3",
    "shortCode": "AJA"
  },
  {
    "id": "fr-aubagne",
    "name": "Stade de Lattre-de-Tassigny",
    "team": "Aubagne",
    "league": "National",
    "city": "Aubagne",
    "lat": 43.2937511,
    "lon": 5.562357,
    "countryCode": "fr",
    "leagueCode": "fr-national",
    "leaguePack": "france_top_3",
    "shortCode": "AUB"
  },
  {
    "id": "fr-bourg-en-bresse",
    "name": "Stade Marcel-Verchère",
    "team": "Bourg en Bresse",
    "league": "National",
    "city": "Bourg-en-Bresse",
    "lat": 46.2100024,
    "lon": 5.23715,
    "countryCode": "fr",
    "leagueCode": "fr-national",
    "leaguePack": "france_top_3",
    "shortCode": "BEB"
  },
  {
    "id": "fr-caen",
    "name": "Stade Michel d'Ornano",
    "team": "Caen",
    "league": "National",
    "city": "Caen",
    "lat": 49.1794925,
    "lon": -0.3969526,
    "countryCode": "fr",
    "leagueCode": "fr-national",
    "leaguePack": "france_top_3",
    "shortCode": "CAE"
  },
  {
    "id": "fr-chateauroux",
    "name": "Stade Gaston-Petit",
    "team": "Châteauroux",
    "league": "National",
    "city": "Châteauroux",
    "lat": 46.8020239,
    "lon": 1.7214839,
    "countryCode": "fr",
    "leagueCode": "fr-national",
    "leaguePack": "france_top_3",
    "shortCode": "CHA"
  },
  {
    "id": "fr-concarneau",
    "name": "Stade Guy-Piriou",
    "team": "Concarneau",
    "league": "National",
    "city": "Concarneau",
    "lat": 47.8891759,
    "lon": -3.9135879,
    "countryCode": "fr",
    "leagueCode": "fr-national",
    "leaguePack": "france_top_3",
    "shortCode": "CON"
  },
  {
    "id": "fr-dijon",
    "name": "Stade Gaston Gérard",
    "team": "Dijon",
    "league": "National",
    "city": "Dijon",
    "lat": 47.3243083,
    "lon": 5.0683395,
    "countryCode": "fr",
    "leagueCode": "fr-national",
    "leaguePack": "france_top_3",
    "shortCode": "DIJ"
  },
  {
    "id": "fr-fleury-merogis",
    "name": "Stade Auguste Gentelet",
    "team": "Fleury-Merogis",
    "league": "National",
    "city": "Fleury-Mérogis",
    "lat": 48.6340178,
    "lon": 2.362326,
    "countryCode": "fr",
    "leagueCode": "fr-national",
    "leaguePack": "france_top_3",
    "shortCode": "FML"
  },
  {
    "id": "fr-le-puy",
    "name": "Stade Charles Massot",
    "team": "Le Puy",
    "league": "National",
    "city": "Le Puy-en-Velay",
    "lat": 45.0465349,
    "lon": 3.8739538,
    "countryCode": "fr",
    "leagueCode": "fr-national",
    "leaguePack": "france_top_3",
    "shortCode": "LPE"
  },
  {
    "id": "fr-orleans",
    "name": "Stade de la Source",
    "team": "Orléans",
    "league": "National",
    "city": "Orléans",
    "lat": 47.8406519,
    "lon": 1.9414034,
    "countryCode": "fr",
    "leagueCode": "fr-national",
    "leaguePack": "france_top_3",
    "shortCode": "ORL"
  },
  {
    "id": "fr-paris-13-atl",
    "name": "Stade Sébastien Charléty",
    "team": "Paris 13 Atl.",
    "league": "National",
    "city": "Paris",
    "lat": 48.8180501,
    "lon": 2.3461418,
    "countryCode": "fr",
    "leagueCode": "fr-national",
    "leaguePack": "france_top_3",
    "shortCode": "P1A"
  },
  {
    "id": "fr-quevilly-rouen",
    "name": "Stade Robert Diochon",
    "team": "Quevilly Rouen",
    "league": "National",
    "city": "Le Petit-Quevilly",
    "lat": 49.4110843,
    "lon": 1.0706462,
    "countryCode": "fr",
    "leagueCode": "fr-national",
    "leaguePack": "france_top_3",
    "shortCode": "QRU"
  },
  {
    "id": "fr-rouen",
    "name": "Stade Robert Diochon",
    "team": "Rouen",
    "league": "National",
    "city": "Rouen",
    "lat": 49.4110843,
    "lon": 1.0706462,
    "countryCode": "fr",
    "leagueCode": "fr-national",
    "leaguePack": "france_top_3",
    "shortCode": "ROU"
  },
  {
    "id": "fr-sochaux",
    "name": "Stade Auguste-Bonal",
    "team": "Sochaux",
    "league": "National",
    "city": "Montbéliard",
    "lat": 47.512408,
    "lon": 6.8111753,
    "countryCode": "fr",
    "leagueCode": "fr-national",
    "leaguePack": "france_top_3",
    "shortCode": "SOC"
  },
  {
    "id": "fr-stade-briochin",
    "name": "Stade Fred-Aubert",
    "team": "Stade Briochin",
    "league": "National",
    "city": "Saint-Brieuc",
    "lat": 48.5090878,
    "lon": -2.7441039,
    "countryCode": "fr",
    "leagueCode": "fr-national",
    "leaguePack": "france_top_3",
    "shortCode": "SBT"
  },
  {
    "id": "fr-valenciennes",
    "name": "Stade du Hainaut",
    "team": "Valenciennes",
    "league": "National",
    "city": "Valenciennes",
    "lat": 50.3484274,
    "lon": 3.5317455,
    "countryCode": "fr",
    "leagueCode": "fr-national",
    "leaguePack": "france_top_3",
    "shortCode": "VAL"
  },
  {
    "id": "fr-versailles",
    "name": "Stade Georges Lefèvre",
    "team": "Versailles",
    "league": "National",
    "city": "Versailles",
    "lat": 48.8035403,
    "lon": 2.1266886,
    "countryCode": "fr",
    "leagueCode": "fr-national",
    "leaguePack": "france_top_3",
    "shortCode": "VER"
  },
  {
    "id": "fr-villefranche",
    "name": "Stade Armand Chouffet",
    "team": "Villefranche",
    "league": "National",
    "city": "Villefranche-sur-Saône",
    "lat": 45.9998628,
    "lon": 4.7072464,
    "countryCode": "fr",
    "leagueCode": "fr-national",
    "leaguePack": "france_top_3",
    "shortCode": "VIL"
  }
]
