[
  {
    "id": "fr-angers",
    "name": "Stade Raymond Kopa",
    "team": "Angers",
    "league": "Ligue 1",
    "city": "Angers",
    "lat": 47.4606,
    "lon": -0.5308,
    "countryCode": "fr",
    "leagueCode": "fr-ligue-1",
    "leaguePack": "france_top_3",
    "shortCode": "ANG",
    "competitionId": "fr-ligue-1",
    "seasonId": "2026-27",
    "membershipStatus": "active"
  },
  {
    "id": "fr-auxerre",
    "name": "Stade Abbé-Deschamps",
    "team": "Auxerre",
    "league": "Ligue 1",
    "city": "Auxerre",
    "lat": 47.7867,
    "lon": 3.5883,
    "countryCode": "fr",
    "leagueCode": "fr-ligue-1",
    "leaguePack": "france_top_3",
    "shortCode": "AUX",
    "competitionId": "fr-ligue-1",
    "seasonId": "2026-27",
    "membershipStatus": "active"
  },
  {
    "id": "fr-brest",
    "name": "Stade Francis-Le Blé",
    "team": "Brest",
    "league": "Ligue 1",
    "city": "Brest",
    "lat": 48.402,
    "lon": -4.4616,
    "countryCode": "fr",
    "leagueCode": "fr-ligue-1",
    "leaguePack": "france_top_3",
    "shortCode": "BRE",
    "competitionId": "fr-ligue-1",
    "seasonId": "2026-27",
    "membershipStatus": "active"
  },
  {
    "id": "fr-le-havre",
    "name": "Stade Océane",
    "team": "Le Havre",
    "league": "Ligue 1",
    "city": "Le Havre",
    "lat": 49.4989,
    "lon": 0.1693,
    "countryCode": "fr",
    "leagueCode": "fr-ligue-1",
    "leaguePack": "france_top_3",
    "shortCode": "LHE",
    "competitionId": "fr-ligue-1",
    "seasonId": "2026-27",
    "membershipStatus": "active"
  },
  {
    "id": "fr-le-mans",
    "name": "Stade Marie-Marvingt",
    "team": "Le Mans",
    "league": "Ligue 1",
    "city": "Le Mans",
    "lat": 47.9593,
    "lon": 0.224,
    "countryCode": "fr",
    "leagueCode": "fr-ligue-1",
    "leaguePack": "france_top_3",
    "shortCode": "LME",
    "competitionId": "fr-ligue-1",
    "seasonId": "2026-27",
    "membershipStatus": "active"
  },
  {
    "id": "fr-lens",
    "name": "Stade Bollaert-Delelis",
    "team": "Lens",
    "league": "Ligue 1",
    "city": "Lens",
    "lat": 50.4329,
    "lon": 2.8158,
    "countryCode": "fr",
    "leagueCode": "fr-ligue-1",
    "leaguePack": "france_top_3",
    "shortCode": "LEN",
    "competitionId": "fr-ligue-1",
    "seasonId": "2026-27",
    "membershipStatus": "active"
  },
  {
    "id": "fr-lille",
    "name": "Stade Pierre-Mauroy",
    "team": "Lille",
    "league": "Ligue 1",
    "city": "Villeneuve-d'Ascq",
    "lat": 50.6119,
    "lon": 3.1304,
    "countryCode": "fr",
    "leagueCode": "fr-ligue-1",
    "leaguePack": "france_top_3",
    "shortCode": "LIL",
    "competitionId": "fr-ligue-1",
    "seasonId": "2026-27",
    "membershipStatus": "active"
  },
  {
    "id": "fr-lorient",
    "name": "Stade du Moustoir",
    "team": "Lorient",
    "league": "Ligue 1",
    "city": "Lorient",
    "lat": 47.7487,
    "lon": -3.3687,
    "countryCode": "fr",
    "leagueCode": "fr-ligue-1",
    "leaguePack": "france_top_3",
    "shortCode": "LOR",
    "competitionId": "fr-ligue-1",
    "seasonId": "2026-27",
    "membershipStatus": "active"
  },
  {
    "id": "fr-lyon",
    "name": "Groupama Stadium",
    "team": "Lyon",
    "league": "Ligue 1",
    "city": "Décines-Charpieu",
    "lat": 45.7653,
    "lon": 4.982,
    "countryCode": "fr",
    "leagueCode": "fr-ligue-1",
    "leaguePack": "france_top_3",
    "shortCode": "LYO",
    "competitionId": "fr-ligue-1",
    "seasonId": "2026-27",
    "membershipStatus": "active"
  },
  {
    "id": "fr-marseille",
    "name": "Stade Vélodrome",
    "team": "Marseille",
    "league": "Ligue 1",
    "city": "Marseille",
    "lat": 43.2698,
    "lon": 5.3959,
    "countryCode": "fr",
    "leagueCode": "fr-ligue-1",
    "leaguePack": "france_top_3",
    "shortCode": "MAR",
    "competitionId": "fr-ligue-1",
    "seasonId": "2026-27",
    "membershipStatus": "active"
  },
  {
    "id": "fr-monaco",
    "name": "Stade Louis II",
    "team": "Monaco",
    "league": "Ligue 1",
    "city": "Monaco",
    "lat": 43.7276,
    "lon": 7.4156,
    "countryCode": "fr",
    "leagueCode": "fr-ligue-1",
    "leaguePack": "france_top_3",
    "shortCode": "MON",
    "competitionId": "fr-ligue-1",
    "seasonId": "2026-27",
    "membershipStatus": "active"
  },
  {
    "id": "fr-nice",
    "name": "Allianz Riviera",
    "team": "Nice",
    "league": "Ligue 1",
    "city": "Nice",
    "lat": 43.7051,
    "lon": 7.1926,
    "countryCode": "fr",
    "leagueCode": "fr-ligue-1",
    "leaguePack": "france_top_3",
    "shortCode": "NIC",
    "competitionId": "fr-ligue-1",
    "seasonId": "2026-27",
    "membershipStatus": "active"
  },
  {
    "id": "fr-paris-fc",
    "name": "Stade Jean-Bouin",
    "team": "Paris FC",
    "league": "Ligue 1",
    "city": "Paris (Paris 16)",
    "lat": 48.8414,
    "lon": 2.2529,
    "countryCode": "fr",
    "leagueCode": "fr-ligue-1",
    "leaguePack": "france_top_3",
    "shortCode": "PFA",
    "competitionId": "fr-ligue-1",
    "seasonId": "2026-27",
    "membershipStatus": "active"
  },
  {
    "id": "fr-psg",
    "name": "Parc des Princes",
    "team": "PSG",
    "league": "Ligue 1",
    "city": "Paris",
    "lat": 48.8414,
    "lon": 2.253,
    "countryCode": "fr",
    "leagueCode": "fr-ligue-1",
    "leaguePack": "france_top_3",
    "shortCode": "PSG",
    "competitionId": "fr-ligue-1",
    "seasonId": "2026-27",
    "membershipStatus": "active"
  },
  {
    "id": "fr-rennes",
    "name": "Roazhon Park",
    "team": "Rennes",
    "league": "Ligue 1",
    "city": "Rennes",
    "lat": 48.1075,
    "lon": -1.7128,
    "countryCode": "fr",
    "leagueCode": "fr-ligue-1",
    "leaguePack": "france_top_3",
    "shortCode": "REN",
    "competitionId": "fr-ligue-1",
    "seasonId": "2026-27",
    "membershipStatus": "active"
  },
  {
    "id": "fr-strasbourg",
    "name": "Stade de la Meinau",
    "team": "Strasbourg",
    "league": "Ligue 1",
    "city": "Strasbourg",
    "lat": 48.56,
    "lon": 7.755,
    "countryCode": "fr",
    "leagueCode": "fr-ligue-1",
    "leaguePack": "france_top_3",
    "shortCode": "STR",
    "competitionId": "fr-ligue-1",
    "seasonId": "2026-27",
    "membershipStatus": "active"
  },
  {
    "id": "fr-toulouse",
    "name": "Stadium de Toulouse",
    "team": "Toulouse",
    "league": "Ligue 1",
    "city": "Toulouse",
    "lat": 43.5832,
    "lon": 1.4341,
    "countryCode": "fr",
    "leagueCode": "fr-ligue-1",
    "leaguePack": "france_top_3",
    "shortCode": "TOU",
    "competitionId": "fr-ligue-1",
    "seasonId": "2026-27",
    "membershipStatus": "active"
  },
  {
    "id": "fr-troyes",
    "name": "Stade de l'Aube",
    "team": "Troyes",
    "league": "Ligue 1",
    "city": "Troyes",
    "lat": 48.3073,
    "lon": 4.0986,
    "countryCode": "fr",
    "leagueCode": "fr-ligue-1",
    "leaguePack": "france_top_3",
    "shortCode": "TRO",
    "competitionId": "fr-ligue-1",
    "seasonId": "2026-27",
    "membershipStatus": "active"
  },
  {
    "id": "fr-annecy-fc",
    "name": "Parc des Sports",
    "team": "Annecy FC",
    "league": "Ligue 2",
    "city": "Annecy",
    "lat": 45.9172,
    "lon": 6.133,
    "countryCode": "fr",
    "leagueCode": "fr-ligue-2",
    "leaguePack": "france_top_3",
    "shortCode": "AFN",
    "competitionId": "fr-ligue-2",
    "seasonId": "2026-27",
    "membershipStatus": "active"
  },
  {
    "id": "fr-boulogne",
    "name": "Stade de la Libération",
    "team": "Boulogne",
    "league": "Ligue 2",
    "city": "Boulogne-sur-Mer",
    "lat": 50.7253,
    "lon": 1.6028,
    "countryCode": "fr",
    "leagueCode": "fr-ligue-2",
    "leaguePack": "france_top_3",
    "shortCode": "BOU",
    "competitionId": "fr-ligue-2",
    "seasonId": "2026-27",
    "membershipStatus": "active"
  },
  {
    "id": "fr-clermont",
    "name": "Stade Gabriel-Montpied",
    "team": "Clermont",
    "league": "Ligue 2",
    "city": "Clermont-Ferrand",
    "lat": 45.8156,
    "lon": 3.1203,
    "countryCode": "fr",
    "leagueCode": "fr-ligue-2",
    "leaguePack": "france_top_3",
    "shortCode": "CLE",
    "competitionId": "fr-ligue-2",
    "seasonId": "2026-27",
    "membershipStatus": "active"
  },
  {
    "id": "fr-dijon",
    "name": "Stade Gaston-Gérard",
    "team": "Dijon",
    "league": "Ligue 2",
    "city": "Dijon",
    "lat": 47.3242,
    "lon": 5.068,
    "countryCode": "fr",
    "leagueCode": "fr-ligue-2",
    "leaguePack": "france_top_3",
    "shortCode": "DIJ",
    "competitionId": "fr-ligue-2",
    "seasonId": "2026-27",
    "membershipStatus": "active"
  },
  {
    "id": "fr-grenoble",
    "name": "Stade des Alpes",
    "team": "Grenoble",
    "league": "Ligue 2",
    "city": "Grenoble",
    "lat": 45.187,
    "lon": 5.7405,
    "countryCode": "fr",
    "leagueCode": "fr-ligue-2",
    "leaguePack": "france_top_3",
    "shortCode": "GRE",
    "competitionId": "fr-ligue-2",
    "seasonId": "2026-27",
    "membershipStatus": "active"
  },
  {
    "id": "fr-guingamp",
    "name": "Stade de Roudourou",
    "team": "Guingamp",
    "league": "Ligue 2",
    "city": "Guingamp",
    "lat": 48.5664,
    "lon": -3.1633,
    "countryCode": "fr",
    "leagueCode": "fr-ligue-2",
    "leaguePack": "france_top_3",
    "shortCode": "GUI",
    "competitionId": "fr-ligue-2",
    "seasonId": "2026-27",
    "membershipStatus": "active"
  },
  {
    "id": "fr-laval",
    "name": "Stade Francis-Le Basser",
    "team": "Laval",
    "league": "Ligue 2",
    "city": "Laval",
    "lat": 48.0857,
    "lon": -0.7562,
    "countryCode": "fr",
    "leagueCode": "fr-ligue-2",
    "leaguePack": "france_top_3",
    "shortCode": "LAV",
    "competitionId": "fr-ligue-2",
    "seasonId": "2026-27",
    "membershipStatus": "active"
  },
  {
    "id": "fr-metz",
    "name": "Stade Saint-Symphorien",
    "team": "Metz",
    "league": "Ligue 2",
    "city": "Longeville-lès-Metz",
    "lat": 49.1097,
    "lon": 6.1597,
    "countryCode": "fr",
    "leagueCode": "fr-ligue-2",
    "leaguePack": "france_top_3",
    "shortCode": "MET",
    "competitionId": "fr-ligue-2",
    "seasonId": "2026-27",
    "membershipStatus": "active"
  },
  {
    "id": "fr-montpellier",
    "name": "Stade de la Mosson",
    "team": "Montpellier",
    "league": "Ligue 2",
    "city": "Montpellier",
    "lat": 43.6222,
    "lon": 3.812,
    "countryCode": "fr",
    "leagueCode": "fr-ligue-2",
    "leaguePack": "france_top_3",
    "shortCode": "MO2",
    "competitionId": "fr-ligue-2",
    "seasonId": "2026-27",
    "membershipStatus": "active"
  },
  {
    "id": "fr-nancy",
    "name": "Stade Marcel-Picot",
    "team": "Nancy",
    "league": "Ligue 2",
    "city": "Nancy",
    "lat": 48.6956,
    "lon": 6.21,
    "countryCode": "fr",
    "leagueCode": "fr-ligue-2",
    "leaguePack": "france_top_3",
    "shortCode": "NA2",
    "competitionId": "fr-ligue-2",
    "seasonId": "2026-27",
    "membershipStatus": "active"
  },
  {
    "id": "fr-nantes",
    "name": "Stade de la Beaujoire",
    "team": "Nantes",
    "league": "Ligue 2",
    "city": "Nantes",
    "lat": 47.2561,
    "lon": -1.5247,
    "countryCode": "fr",
    "leagueCode": "fr-ligue-2",
    "leaguePack": "france_top_3",
    "shortCode": "NAN",
    "competitionId": "fr-ligue-2",
    "seasonId": "2026-27",
    "membershipStatus": "active"
  },
  {
    "id": "fr-pau-fc",
    "name": "Nouste Camp",
    "team": "Pau FC",
    "league": "Ligue 2",
    "city": "Pau",
    "lat": 43.3276,
    "lon": -0.3678,
    "countryCode": "fr",
    "leagueCode": "fr-ligue-2",
    "leaguePack": "france_top_3",
    "shortCode": "PF2",
    "competitionId": "fr-ligue-2",
    "seasonId": "2026-27",
    "membershipStatus": "active"
  },
  {
    "id": "fr-red-star",
    "name": "Stade Bauer",
    "team": "Red Star",
    "league": "Ligue 2",
    "city": "Paris (Saint-Ouen)",
    "lat": 48.9058,
    "lon": 2.3407,
    "countryCode": "fr",
    "leagueCode": "fr-ligue-2",
    "leaguePack": "france_top_3",
    "shortCode": "RSE",
    "competitionId": "fr-ligue-2",
    "seasonId": "2026-27",
    "membershipStatus": "active"
  },
  {
    "id": "fr-reims",
    "name": "Stade Auguste-Delaune",
    "team": "Reims",
    "league": "Ligue 2",
    "city": "Reims",
    "lat": 49.2461,
    "lon": 4.025,
    "countryCode": "fr",
    "leagueCode": "fr-ligue-2",
    "leaguePack": "france_top_3",
    "shortCode": "REI",
    "competitionId": "fr-ligue-2",
    "seasonId": "2026-27",
    "membershipStatus": "active"
  },
  {
    "id": "fr-rodez",
    "name": "Stade Paul-Lignon",
    "team": "Rodez",
    "league": "Ligue 2",
    "city": "Rodez",
    "lat": 44.352,
    "lon": 2.575,
    "countryCode": "fr",
    "leagueCode": "fr-ligue-2",
    "leaguePack": "france_top_3",
    "shortCode": "ROD",
    "competitionId": "fr-ligue-2",
    "seasonId": "2026-27",
    "membershipStatus": "active"
  },
  {
    "id": "fr-sochaux",
    "name": "Stade Auguste-Bonal",
    "team": "Sochaux",
    "league": "Ligue 2",
    "city": "Montbéliard",
    "lat": 47.5128,
    "lon": 6.8117,
    "countryCode": "fr",
    "leagueCode": "fr-ligue-2",
    "leaguePack": "france_top_3",
    "shortCode": "SOC",
    "competitionId": "fr-ligue-2",
    "seasonId": "2026-27",
    "membershipStatus": "active"
  },
  {
    "id": "fr-st-etienne",
    "name": "Stade Geoffroy-Guichard",
    "team": "St. Etienne",
    "league": "Ligue 2",
    "city": "Saint-Étienne",
    "lat": 45.4608,
    "lon": 4.3903,
    "countryCode": "fr",
    "leagueCode": "fr-ligue-2",
    "leaguePack": "france_top_3",
    "shortCode": "SET",
    "competitionId": "fr-ligue-2",
    "seasonId": "2026-27",
    "membershipStatus": "active"
  },
  {
    "id": "fr-usl-dunkerque",
    "name": "Stade Marcel-Tribut",
    "team": "USL Dunkerque",
    "league": "Ligue 2",
    "city": "Dunkirk",
    "lat": 51.0379,
    "lon": 2.384,
    "countryCode": "fr",
    "leagueCode": "fr-ligue-2",
    "leaguePack": "france_top_3",
    "shortCode": "UDS",
    "competitionId": "fr-ligue-2",
    "seasonId": "2026-27",
    "membershipStatus": "active"
  },
  {
    "id": "fr-amiens",
    "name": "Stade de la Licorne",
    "team": "Amiens",
    "league": "National",
    "city": "Amiens",
    "lat": 49.8946,
    "lon": 2.2639,
    "countryCode": "fr",
    "leagueCode": "fr-national",
    "leaguePack": "france_top_3",
    "shortCode": "AMI",
    "competitionId": "fr-national",
    "seasonId": "2026-27",
    "membershipStatus": "active"
  },
  {
    "id": "fr-aubagne",
    "name": "Stade de Lattre-de-Tassigny",
    "team": "Aubagne",
    "league": "National",
    "city": "Aubagne",
    "lat": 43.2922,
    "lon": 5.5706,
    "countryCode": "fr",
    "leagueCode": "fr-national",
    "leaguePack": "france_top_3",
    "shortCode": "AUB",
    "competitionId": "fr-national",
    "seasonId": "2026-27",
    "membershipStatus": "active"
  },
  {
    "id": "fr-bastia",
    "name": "Stade Armand-Cesari",
    "team": "Bastia",
    "league": "National",
    "city": "Bastia",
    "lat": 42.6506,
    "lon": 9.4428,
    "countryCode": "fr",
    "leagueCode": "fr-national",
    "leaguePack": "france_top_3",
    "shortCode": "BAS",
    "competitionId": "fr-national",
    "seasonId": "2026-27",
    "membershipStatus": "active"
  },
  {
    "id": "fr-bourg-en-bresse",
    "name": "Stade Marcel-Verchère",
    "team": "Bourg en Bresse",
    "league": "National",
    "city": "Bourg-en-Bresse",
    "lat": 46.2135,
    "lon": 5.2269,
    "countryCode": "fr",
    "leagueCode": "fr-national",
    "leaguePack": "france_top_3",
    "shortCode": "BEB",
    "competitionId": "fr-national",
    "seasonId": "2026-27",
    "membershipStatus": "active"
  },
  {
    "id": "fr-caen",
    "name": "Stade Michel-d'Ornano",
    "team": "Caen",
    "league": "National",
    "city": "Caen",
    "lat": 49.1794,
    "lon": -0.3969,
    "countryCode": "fr",
    "leagueCode": "fr-national",
    "leaguePack": "france_top_3",
    "shortCode": "CAE",
    "competitionId": "fr-national",
    "seasonId": "2026-27",
    "membershipStatus": "active"
  },
  {
    "id": "fr-cannes",
    "name": "Stade Pierre-de-Coubertin",
    "team": "AS Cannes",
    "league": "National",
    "city": "Cannes",
    "lat": 43.5489,
    "lon": 6.9681,
    "countryCode": "fr",
    "leagueCode": "fr-national",
    "leaguePack": "france_top_3",
    "shortCode": "CAN",
    "competitionId": "fr-national",
    "seasonId": "2026-27",
    "membershipStatus": "active"
  },
  {
    "id": "fr-concarneau",
    "name": "Stade Guy-Piriou",
    "team": "Concarneau",
    "league": "National",
    "city": "Concarneau",
    "lat": 47.8778,
    "lon": -3.9236,
    "countryCode": "fr",
    "leagueCode": "fr-national",
    "leaguePack": "france_top_3",
    "shortCode": "CON",
    "competitionId": "fr-national",
    "seasonId": "2026-27",
    "membershipStatus": "active"
  },
  {
    "id": "fr-fleury-merogis",
    "name": "Stade Auguste-Gentelet",
    "team": "Fleury-Merogis",
    "league": "National",
    "city": "Fleury-Mérogis",
    "lat": 48.6328,
    "lon": 2.363,
    "countryCode": "fr",
    "leagueCode": "fr-national",
    "leaguePack": "france_top_3",
    "shortCode": "FML",
    "competitionId": "fr-national",
    "seasonId": "2026-27",
    "membershipStatus": "active"
  },
  {
    "id": "fr-la-roche-vendee",
    "name": "Stade Henri-Desgrange",
    "team": "La Roche Vendée Football",
    "league": "National",
    "city": "La Roche-sur-Yon",
    "lat": 46.6772,
    "lon": -1.4262,
    "countryCode": "fr",
    "leagueCode": "fr-national",
    "leaguePack": "france_top_3",
    "shortCode": "LRV",
    "competitionId": "fr-national",
    "seasonId": "2026-27",
    "membershipStatus": "active"
  },
  {
    "id": "fr-le-puy",
    "name": "Stade Charles-Massot",
    "team": "Le Puy",
    "league": "National",
    "city": "Le Puy-en-Velay",
    "lat": 45.0435,
    "lon": 3.889,
    "countryCode": "fr",
    "leagueCode": "fr-national",
    "leaguePack": "france_top_3",
    "shortCode": "LPE",
    "competitionId": "fr-national",
    "seasonId": "2026-27",
    "membershipStatus": "active"
  },
  {
    "id": "fr-orleans",
    "name": "Stade de la Source",
    "team": "Orléans",
    "league": "National",
    "city": "Orléans",
    "lat": 47.8416,
    "lon": 1.9385,
    "countryCode": "fr",
    "leagueCode": "fr-national",
    "leaguePack": "france_top_3",
    "shortCode": "ORL",
    "competitionId": "fr-national",
    "seasonId": "2026-27",
    "membershipStatus": "active"
  },
  {
    "id": "fr-paris-13-atl",
    "name": "Stade Pelé",
    "team": "Paris 13 Atl.",
    "league": "National",
    "city": "Paris",
    "lat": 48.8218,
    "lon": 2.3631,
    "countryCode": "fr",
    "leagueCode": "fr-national",
    "leaguePack": "france_top_3",
    "shortCode": "P1A",
    "competitionId": "fr-national",
    "seasonId": "2026-27",
    "membershipStatus": "active"
  },
  {
    "id": "fr-quevilly-rouen",
    "name": "Stade Robert-Diochon",
    "team": "Quevilly Rouen",
    "league": "National",
    "city": "Le Petit-Quevilly",
    "lat": 49.4131,
    "lon": 1.0717,
    "countryCode": "fr",
    "leagueCode": "fr-national",
    "leaguePack": "france_top_3",
    "shortCode": "QRU",
    "competitionId": "fr-national",
    "seasonId": "2026-27",
    "membershipStatus": "active"
  },
  {
    "id": "fr-rouen",
    "name": "Stade Robert-Diochon",
    "team": "Rouen",
    "league": "National",
    "city": "Rouen",
    "lat": 49.4131,
    "lon": 1.0717,
    "countryCode": "fr",
    "leagueCode": "fr-national",
    "leaguePack": "france_top_3",
    "shortCode": "ROU",
    "competitionId": "fr-national",
    "seasonId": "2026-27",
    "membershipStatus": "active"
  },
  {
    "id": "fr-thionville-lusitanos",
    "name": "Stade de Guentrange",
    "team": "US Thionville Lusitanos",
    "league": "National",
    "city": "Thionville",
    "lat": 49.3704,
    "lon": 6.147,
    "countryCode": "fr",
    "leagueCode": "fr-national",
    "leaguePack": "france_top_3",
    "shortCode": "THI",
    "competitionId": "fr-national",
    "seasonId": "2026-27",
    "membershipStatus": "active"
  },
  {
    "id": "fr-valenciennes",
    "name": "Stade du Hainaut",
    "team": "Valenciennes",
    "league": "National",
    "city": "Valenciennes",
    "lat": 50.3489,
    "lon": 3.5321,
    "countryCode": "fr",
    "leagueCode": "fr-national",
    "leaguePack": "france_top_3",
    "shortCode": "VAL",
    "competitionId": "fr-national",
    "seasonId": "2026-27",
    "membershipStatus": "active"
  },
  {
    "id": "fr-versailles",
    "name": "Stade de Montbauron",
    "team": "Versailles",
    "league": "National",
    "city": "Versailles",
    "lat": 48.8042,
    "lon": 2.1302,
    "countryCode": "fr",
    "leagueCode": "fr-national",
    "leaguePack": "france_top_3",
    "shortCode": "VER",
    "competitionId": "fr-national",
    "seasonId": "2026-27",
    "membershipStatus": "active"
  },
  {
    "id": "fr-villefranche",
    "name": "Stade Armand-Chouffet",
    "team": "Villefranche",
    "league": "National",
    "city": "Villefranche-sur-Saône",
    "lat": 45.986,
    "lon": 4.7208,
    "countryCode": "fr",
    "leagueCode": "fr-national",
    "leaguePack": "france_top_3",
    "shortCode": "VIL",
    "competitionId": "fr-national",
    "seasonId": "2026-27",
    "membershipStatus": "active"
  },
  {
    "id": "fr-ajaccio",
    "name": "Stade Michel Moretti",
    "team": "Ajaccio",
    "league": "Nedrykkere",
    "city": "Ajaccio",
    "lat": 41.930831,
    "lon": 8.776793,
    "countryCode": "fr",
    "leaguePack": "france_top_3",
    "shortCode": "AJA",
    "seasonId": "2026-27",
    "membershipStatus": "relegated"
  },
  {
    "id": "fr-chateauroux",
    "name": "Stade Gaston-Petit",
    "team": "Châteauroux",
    "league": "Nedrykkere",
    "city": "Châteauroux",
    "lat": 46.802024,
    "lon": 1.721484,
    "countryCode": "fr",
    "leaguePack": "france_top_3",
    "shortCode": "CHA",
    "seasonId": "2026-27",
    "membershipStatus": "relegated"
  },
  {
    "id": "fr-stade-briochin",
    "name": "Stade Fred-Aubert",
    "team": "Stade Briochin",
    "league": "Nedrykkere",
    "city": "Saint-Brieuc",
    "lat": 48.509088,
    "lon": -2.744104,
    "countryCode": "fr",
    "leaguePack": "france_top_3",
    "shortCode": "SBT",
    "seasonId": "2026-27",
    "membershipStatus": "relegated"
  }
]
