[
  {
    "id": "de-bayern-munchen",
    "name": "Allianz Arena",
    "team": "FC Bayern München",
    "league": "Bundesliga",
    "city": "München",
    "lat": 48.2187901,
    "lon": 11.6236227,
    "countryCode": "de",
    "leagueCode": "de-bundesliga",
    "leaguePack": "germany_top_3",
    "shortCode": "FCB"
  },
  {
    "id": "de-bayer-leverkusen",
    "name": "BayArena",
    "team": "Bayer 04 Leverkusen",
    "league": "Bundesliga",
    "city": "Leverkusen",
    "lat": 51.0381439,
    "lon": 7.0030964,
    "countryCode": "de",
    "leagueCode": "de-bundesliga",
    "leaguePack": "germany_top_3",
    "shortCode": "B04"
  },
  {
    "id": "de-eintracht-frankfurt",
    "name": "Deutsche Bank Park",
    "team": "Eintracht Frankfurt",
    "league": "Bundesliga",
    "city": "Frankfurt am Main",
    "lat": 50.0686103,
    "lon": 8.6454154,
    "countryCode": "de",
    "leagueCode": "de-bundesliga",
    "leaguePack": "germany_top_3",
    "shortCode": "SGE"
  },
  {
    "id": "de-borussia-dortmund",
    "name": "SIGNAL IDUNA PARK",
    "team": "Borussia Dortmund",
    "league": "Bundesliga",
    "city": "Dortmund",
    "lat": 51.4924922,
    "lon": 7.4518549,
    "countryCode": "de",
    "leagueCode": "de-bundesliga",
    "leaguePack": "germany_top_3",
    "shortCode": "BVB"
  },
  {
    "id": "de-sc-freiburg",
    "name": "Europa-Park Stadion",
    "team": "Sport-Club Freiburg",
    "league": "Bundesliga",
    "city": "Freiburg im Breisgau",
    "lat": 48.0213778,
    "lon": 7.829817,
    "countryCode": "de",
    "leagueCode": "de-bundesliga",
    "leaguePack": "germany_top_3",
    "shortCode": "SCF"
  },
  {
    "id": "de-mainz-05",
    "name": "MEWA ARENA",
    "team": "1. FSV Mainz 05",
    "league": "Bundesliga",
    "city": "Mainz",
    "lat": 49.9839451,
    "lon": 8.2244738,
    "countryCode": "de",
    "leagueCode": "de-bundesliga",
    "leaguePack": "germany_top_3",
    "shortCode": "M05"
  },
  {
    "id": "de-rb-leipzig",
    "name": "Red Bull Arena",
    "team": "RB Leipzig",
    "league": "Bundesliga",
    "city": "Leipzig",
    "lat": 51.3457079,
    "lon": 12.3482361,
    "countryCode": "de",
    "leagueCode": "de-bundesliga",
    "leaguePack": "germany_top_3",
    "shortCode": "RBL"
  },
  {
    "id": "de-werder-bremen",
    "name": "Weserstadion",
    "team": "SV Werder Bremen",
    "league": "Bundesliga",
    "city": "Bremen",
    "lat": 53.0664479,
    "lon": 8.8376718,
    "countryCode": "de",
    "leagueCode": "de-bundesliga",
    "leaguePack": "germany_top_3",
    "shortCode": "SVW"
  },
  {
    "id": "de-vfb-stuttgart",
    "name": "MHPArena",
    "team": "VfB Stuttgart",
    "league": "Bundesliga",
    "city": "Stuttgart",
    "lat": 48.7922487,
    "lon": 9.2320857,
    "countryCode": "de",
    "leagueCode": "de-bundesliga",
    "leaguePack": "germany_top_3",
    "shortCode": "VFB"
  },
  {
    "id": "de-borussia-monchengladbach",
    "name": "BORUSSIA-PARK",
    "team": "Borussia Mönchengladbach",
    "league": "Bundesliga",
    "city": "Mönchengladbach",
    "lat": 51.174625,
    "lon": 6.3854094,
    "countryCode": "de",
    "leagueCode": "de-bundesliga",
    "leaguePack": "germany_top_3",
    "shortCode": "BMG"
  },
  {
    "id": "de-vfl-wolfsburg",
    "name": "Volkswagen Arena",
    "team": "VfL Wolfsburg",
    "league": "Bundesliga",
    "city": "Wolfsburg",
    "lat": 52.4328584,
    "lon": 10.803104,
    "countryCode": "de",
    "leagueCode": "de-bundesliga",
    "leaguePack": "germany_top_3",
    "shortCode": "WOB"
  },
  {
    "id": "de-fc-augsburg",
    "name": "WWK ARENA",
    "team": "FC Augsburg",
    "league": "Bundesliga",
    "city": "Augsburg",
    "lat": 48.3231179,
    "lon": 10.885879,
    "countryCode": "de",
    "leagueCode": "de-bundesliga",
    "leaguePack": "germany_top_3",
    "shortCode": "FCA"
  },
  {
    "id": "de-union-berlin",
    "name": "Stadion An der Alten Försterei",
    "team": "1. FC Union Berlin",
    "league": "Bundesliga",
    "city": "Berlin",
    "lat": 52.4569741,
    "lon": 13.5680789,
    "countryCode": "de",
    "leagueCode": "de-bundesliga",
    "leaguePack": "germany_top_3",
    "shortCode": "FCU"
  },
  {
    "id": "de-fc-st-pauli",
    "name": "Millerntor-Stadion",
    "team": "FC St. Pauli",
    "league": "Bundesliga",
    "city": "Hamburg",
    "lat": 53.5545567,
    "lon": 9.9677842,
    "countryCode": "de",
    "leagueCode": "de-bundesliga",
    "leaguePack": "germany_top_3",
    "shortCode": "FCP"
  },
  {
    "id": "de-tsg-hoffenheim",
    "name": "PreZero Arena",
    "team": "TSG Hoffenheim",
    "league": "Bundesliga",
    "city": "Sinsheim",
    "lat": 49.2380604,
    "lon": 8.8876414,
    "countryCode": "de",
    "leagueCode": "de-bundesliga",
    "leaguePack": "germany_top_3",
    "shortCode": "TSG"
  },
  {
    "id": "de-heidenheim",
    "name": "Voith-Arena",
    "team": "1. FC Heidenheim 1846",
    "league": "Bundesliga",
    "city": "Heidenheim an der Brenz",
    "lat": 48.6685245,
    "lon": 10.1392963,
    "countryCode": "de",
    "leagueCode": "de-bundesliga",
    "leaguePack": "germany_top_3",
    "shortCode": "FCH"
  },
  {
    "id": "de-fc-koln",
    "name": "RheinEnergieSTADION",
    "team": "1. FC Köln",
    "league": "Bundesliga",
    "city": "Köln",
    "lat": 50.9335055,
    "lon": 6.8751167,
    "countryCode": "de",
    "leagueCode": "de-bundesliga",
    "leaguePack": "germany_top_3",
    "shortCode": "KOE"
  },
  {
    "id": "de-hamburger-sv",
    "name": "Volksparkstadion",
    "team": "Hamburger SV",
    "league": "Bundesliga",
    "city": "Hamburg",
    "lat": 53.5871535,
    "lon": 9.8987056,
    "countryCode": "de",
    "leagueCode": "de-bundesliga",
    "leaguePack": "germany_top_3",
    "shortCode": "HSV"
  },
  {
    "id": "de-sv-darmstadt-98",
    "name": "Merck-Stadion am Böllenfalltor",
    "team": "SV Darmstadt 98",
    "league": "2. Bundesliga",
    "city": "Darmstadt",
    "lat": 49.85771,
    "lon": 8.6724145,
    "countryCode": "de",
    "leagueCode": "de-2-bundesliga",
    "leaguePack": "germany_top_3",
    "shortCode": "D98"
  },
  {
    "id": "de-sv-elversberg",
    "name": "URSAPHARM-Arena",
    "team": "SV Elversberg",
    "league": "2. Bundesliga",
    "city": "Spiesen-Elversberg",
    "lat": 49.3188046,
    "lon": 7.1215724,
    "countryCode": "de",
    "leagueCode": "de-2-bundesliga",
    "leaguePack": "germany_top_3",
    "shortCode": "SVE"
  },
  {
    "id": "de-hannover-96",
    "name": "Heinz von Heiden Arena",
    "team": "Hannover 96",
    "league": "2. Bundesliga",
    "city": "Hannover",
    "lat": 52.360026,
    "lon": 9.7310161,
    "countryCode": "de",
    "leagueCode": "de-2-bundesliga",
    "leaguePack": "germany_top_3",
    "shortCode": "H96"
  },
  {
    "id": "de-magdeburg",
    "name": "Avnet Arena",
    "team": "1. FC Magdeburg",
    "league": "2. Bundesliga",
    "city": "Magdeburg",
    "lat": 52.1248901,
    "lon": 11.6706866,
    "countryCode": "de",
    "leagueCode": "de-2-bundesliga",
    "leaguePack": "germany_top_3",
    "shortCode": "FCM"
  },
  {
    "id": "de-sc-paderborn-07",
    "name": "Home Deluxe Arena",
    "team": "SC Paderborn 07",
    "league": "2. Bundesliga",
    "city": "Paderborn",
    "lat": 51.7308967,
    "lon": 8.7109633,
    "countryCode": "de",
    "leagueCode": "de-2-bundesliga",
    "leaguePack": "germany_top_3",
    "shortCode": "SCP"
  },
  {
    "id": "de-arminia-bielefeld",
    "name": "SchücoArena",
    "team": "DSC Arminia Bielefeld",
    "league": "2. Bundesliga",
    "city": "Bielefeld",
    "lat": 52.0320259,
    "lon": 8.5167762,
    "countryCode": "de",
    "leagueCode": "de-2-bundesliga",
    "leaguePack": "germany_top_3",
    "shortCode": "DSC"
  },
  {
    "id": "de-kaiserslautern",
    "name": "Fritz-Walter-Stadion",
    "team": "1. FC Kaiserslautern",
    "league": "2. Bundesliga",
    "city": "Kaiserslautern",
    "lat": 49.4345765,
    "lon": 7.7766303,
    "countryCode": "de",
    "leagueCode": "de-2-bundesliga",
    "leaguePack": "germany_top_3",
    "shortCode": "FCKL"
  },
  {
    "id": "de-dynamo-dresden",
    "name": "Rudolf-Harbig-Stadion",
    "team": "SG Dynamo Dresden",
    "league": "2. Bundesliga",
    "city": "Dresden",
    "lat": 51.040849,
    "lon": 13.7480416,
    "countryCode": "de",
    "leagueCode": "de-2-bundesliga",
    "leaguePack": "germany_top_3",
    "shortCode": "SGD"
  },
  {
    "id": "de-holstein-kiel",
    "name": "Holstein-Stadion",
    "team": "Holstein Kiel",
    "league": "2. Bundesliga",
    "city": "Kiel",
    "lat": 54.3492088,
    "lon": 10.1237559,
    "countryCode": "de",
    "leagueCode": "de-2-bundesliga",
    "leaguePack": "germany_top_3",
    "shortCode": "KSV"
  },
  {
    "id": "de-preussen-munster",
    "name": "LVM-Preußenstadion",
    "team": "SC Preußen Münster",
    "league": "2. Bundesliga",
    "city": "Münster",
    "lat": 51.9318157,
    "lon": 7.626097,
    "countryCode": "de",
    "leagueCode": "de-2-bundesliga",
    "leaguePack": "germany_top_3",
    "shortCode": "SCPM"
  },
  {
    "id": "de-schalke-04",
    "name": "VELTINS-Arena",
    "team": "FC Schalke 04",
    "league": "2. Bundesliga",
    "city": "Gelsenkirchen",
    "lat": 51.5545938,
    "lon": 7.0676001,
    "countryCode": "de",
    "leagueCode": "de-2-bundesliga",
    "leaguePack": "germany_top_3",
    "shortCode": "S04"
  },
  {
    "id": "de-hertha-bsc",
    "name": "Olympiastadion",
    "team": "Hertha BSC",
    "league": "2. Bundesliga",
    "city": "Berlin",
    "lat": 52.5145846,
    "lon": 13.2398144,
    "countryCode": "de",
    "leagueCode": "de-2-bundesliga",
    "leaguePack": "germany_top_3",
    "shortCode": "BSC"
  },
  {
    "id": "de-karlsruher-sc",
    "name": "BBBank Wildpark",
    "team": "Karlsruher SC",
    "league": "2. Bundesliga",
    "city": "Karlsruhe",
    "lat": 49.0200043,
    "lon": 8.4129879,
    "countryCode": "de",
    "leagueCode": "de-2-bundesliga",
    "leaguePack": "germany_top_3",
    "shortCode": "KSC"
  },
  {
    "id": "de-eintracht-braunschweig",
    "name": "EINTRACHT-STADION",
    "team": "Eintracht Braunschweig",
    "league": "2. Bundesliga",
    "city": "Braunschweig",
    "lat": 52.2901014,
    "lon": 10.5214686,
    "countryCode": "de",
    "leagueCode": "de-2-bundesliga",
    "leaguePack": "germany_top_3",
    "shortCode": "EBS"
  },
  {
    "id": "de-fortuna-dusseldorf",
    "name": "Merkur Spielarena",
    "team": "Fortuna Düsseldorf",
    "league": "2. Bundesliga",
    "city": "Düsseldorf",
    "lat": 51.2616291,
    "lon": 6.7331516,
    "countryCode": "de",
    "leagueCode": "de-2-bundesliga",
    "leaguePack": "germany_top_3",
    "shortCode": "F95"
  },
  {
    "id": "de-vfl-bochum",
    "name": "Vonovia Ruhrstadion",
    "team": "VfL Bochum 1848",
    "league": "2. Bundesliga",
    "city": "Bochum",
    "lat": 51.4900826,
    "lon": 7.2365091,
    "countryCode": "de",
    "leagueCode": "de-2-bundesliga",
    "leaguePack": "germany_top_3",
    "shortCode": "BOC"
  },
  {
    "id": "de-nurnberg",
    "name": "Max-Morlock-Stadion",
    "team": "1. FC Nürnberg",
    "league": "2. Bundesliga",
    "city": "Nürnberg",
    "lat": 49.426257,
    "lon": 11.1256706,
    "countryCode": "de",
    "leagueCode": "de-2-bundesliga",
    "leaguePack": "germany_top_3",
    "shortCode": "FCN"
  },
  {
    "id": "de-greuther-furth",
    "name": "Sportpark Ronhof | Thomas Sommer",
    "team": "SpVgg Greuther Fürth",
    "league": "2. Bundesliga",
    "city": "Fürth",
    "lat": 49.4871453,
    "lon": 10.9988931,
    "countryCode": "de",
    "leagueCode": "de-2-bundesliga",
    "leaguePack": "germany_top_3",
    "shortCode": "SGF"
  },
  {
    "id": "de-energie-cottbus",
    "name": "LEAG Energie Stadion",
    "team": "Energie Cottbus",
    "league": "3. Liga",
    "city": "Cottbus",
    "lat": 51.7516231,
    "lon": 14.345579,
    "countryCode": "de",
    "leagueCode": "de-3-liga",
    "leaguePack": "germany_top_3",
    "shortCode": "FCE"
  },
  {
    "id": "de-msv-duisburg",
    "name": "Schauinsland-Reisen-Arena",
    "team": "MSV Duisburg",
    "league": "3. Liga",
    "city": "Duisburg",
    "lat": 51.4095005,
    "lon": 6.7771895,
    "countryCode": "de",
    "leagueCode": "de-3-liga",
    "leaguePack": "germany_top_3",
    "shortCode": "MSV"
  },
  {
    "id": "de-sc-verl",
    "name": "Sportclub Arena",
    "team": "SC Verl",
    "league": "3. Liga",
    "city": "Verl",
    "lat": 51.883499,
    "lon": 8.5133824,
    "countryCode": "de",
    "leagueCode": "de-3-liga",
    "leaguePack": "germany_top_3",
    "shortCode": "SCV"
  },
  {
    "id": "de-vfl-osnabruck",
    "name": "Bremer Brücke",
    "team": "VfL Osnabrück",
    "league": "3. Liga",
    "city": "Osnabrück",
    "lat": 52.2808323,
    "lon": 8.0712775,
    "countryCode": "de",
    "leagueCode": "de-3-liga",
    "leaguePack": "germany_top_3",
    "shortCode": "OSN"
  },
  {
    "id": "de-hansa-rostock",
    "name": "Ostseestadion",
    "team": "FC Hansa Rostock",
    "league": "3. Liga",
    "city": "Rostock",
    "lat": 54.0850095,
    "lon": 12.0950945,
    "countryCode": "de",
    "leagueCode": "de-3-liga",
    "leaguePack": "germany_top_3",
    "shortCode": "FCHR"
  },
  {
    "id": "de-rot-weiss-essen",
    "name": "Stadion an der Hafenstraße",
    "team": "Rot-Weiss Essen",
    "league": "3. Liga",
    "city": "Essen",
    "lat": 51.4868685,
    "lon": 6.9766158,
    "countryCode": "de",
    "leagueCode": "de-3-liga",
    "leaguePack": "germany_top_3",
    "shortCode": "RWE"
  },
  {
    "id": "de-1860-munchen",
    "name": "Städtisches Stadion an der Grünwalder Straße",
    "team": "TSV 1860 München",
    "league": "3. Liga",
    "city": "München",
    "lat": 48.1110013,
    "lon": 11.5744172,
    "countryCode": "de",
    "leagueCode": "de-3-liga",
    "leaguePack": "germany_top_3",
    "shortCode": "TSV"
  },
  {
    "id": "de-tsg-hoffenheim-ii",
    "name": "Dietmar-Hopp-Stadion",
    "team": "TSG Hoffenheim II",
    "league": "3. Liga",
    "city": "Sinsheim",
    "lat": 49.2782944,
    "lon": 8.8422013,
    "countryCode": "de",
    "leagueCode": "de-3-liga",
    "leaguePack": "germany_top_3",
    "shortCode": "TSG2"
  },
  {
    "id": "de-waldhof-mannheim",
    "name": "Carl-Benz-Stadion",
    "team": "SV Waldhof Mannheim",
    "league": "3. Liga",
    "city": "Mannheim",
    "lat": 49.4794201,
    "lon": 8.5025049,
    "countryCode": "de",
    "leagueCode": "de-3-liga",
    "leaguePack": "germany_top_3",
    "shortCode": "SVWM"
  },
  {
    "id": "de-wehen-wiesbaden",
    "name": "BRITA-Arena",
    "team": "SV Wehen Wiesbaden",
    "league": "3. Liga",
    "city": "Wiesbaden",
    "lat": 50.0712853,
    "lon": 8.2566478,
    "countryCode": "de",
    "leagueCode": "de-3-liga",
    "leaguePack": "germany_top_3",
    "shortCode": "SVWW"
  },
  {
    "id": "de-viktoria-koln",
    "name": "Sportpark Höhenberg",
    "team": "FC Viktoria Köln",
    "league": "3. Liga",
    "city": "Köln",
    "lat": 50.945109,
    "lon": 7.0304736,
    "countryCode": "de",
    "leagueCode": "de-3-liga",
    "leaguePack": "germany_top_3",
    "shortCode": "VIK"
  },
  {
    "id": "de-vfb-stuttgart-ii",
    "name": "Robert-Schlienz-Stadion",
    "team": "VfB Stuttgart II",
    "league": "3. Liga",
    "city": "Stuttgart",
    "lat": 48.7904688,
    "lon": 9.2338466,
    "countryCode": "de",
    "leagueCode": "de-3-liga",
    "leaguePack": "germany_top_3",
    "shortCode": "VFB2"
  },
  {
    "id": "de-fc-ingolstadt-04",
    "name": "Audi Sportpark",
    "team": "FC Ingolstadt 04",
    "league": "3. Liga",
    "city": "Ingolstadt",
    "lat": 48.7452797,
    "lon": 11.4855268,
    "countryCode": "de",
    "leagueCode": "de-3-liga",
    "leaguePack": "germany_top_3",
    "shortCode": "FCI"
  },
  {
    "id": "de-saarbrucken",
    "name": "Ludwigsparkstadion",
    "team": "1. FC Saarbrücken",
    "league": "3. Liga",
    "city": "Saarbrücken",
    "lat": 49.248083,
    "lon": 6.9838944,
    "countryCode": "de",
    "leagueCode": "de-3-liga",
    "leaguePack": "germany_top_3",
    "shortCode": "FCS"
  },
  {
    "id": "de-jahn-regensburg",
    "name": "Jahnstadion Regensburg",
    "team": "SSV Jahn Regensburg",
    "league": "3. Liga",
    "city": "Regensburg",
    "lat": 48.9908566,
    "lon": 12.1073501,
    "countryCode": "de",
    "leagueCode": "de-3-liga",
    "leaguePack": "germany_top_3",
    "shortCode": "SSVJ"
  },
  {
    "id": "de-alemannia-aachen",
    "name": "Tivoli",
    "team": "Alemannia Aachen",
    "league": "3. Liga",
    "city": "Aachen",
    "lat": 50.7931119,
    "lon": 6.0964285,
    "countryCode": "de",
    "leagueCode": "de-3-liga",
    "leaguePack": "germany_top_3",
    "shortCode": "AAC"
  },
  {
    "id": "de-erzgebirge-aue",
    "name": "Erzgebirgsstadion",
    "team": "FC Erzgebirge Aue",
    "league": "3. Liga",
    "city": "Aue-Bad Schlema",
    "lat": 50.5977903,
    "lon": 12.7113047,
    "countryCode": "de",
    "leagueCode": "de-3-liga",
    "leaguePack": "germany_top_3",
    "shortCode": "AUE"
  },
  {
    "id": "de-ssv-ulm-1846",
    "name": "Donaustadion",
    "team": "SSV Ulm 1846 Fußball",
    "league": "3. Liga",
    "city": "Ulm",
    "lat": 48.4045183,
    "lon": 10.00939,
    "countryCode": "de",
    "leagueCode": "de-3-liga",
    "leaguePack": "germany_top_3",
    "shortCode": "ULM"
  },
  {
    "id": "de-tsv-havelse",
    "name": "Wilhelm-Langrehr-Stadion",
    "team": "TSV Havelse",
    "league": "3. Liga",
    "city": "Garbsen",
    "lat": 52.4088683,
    "lon": 9.6019752,
    "countryCode": "de",
    "leagueCode": "de-3-liga",
    "leaguePack": "germany_top_3",
    "shortCode": "HAV"
  },
  {
    "id": "de-schweinfurt-05",
    "name": "Sachs-Stadion",
    "team": "1. FC Schweinfurt 05",
    "league": "3. Liga",
    "city": "Schweinfurt",
    "lat": 50.051994,
    "lon": 10.2016834,
    "countryCode": "de",
    "leagueCode": "de-3-liga",
    "leaguePack": "germany_top_3",
    "shortCode": "S05"
  }
]
